"","address","lat","lon","id","name","rating","types","type"
"1","Piłsudskiego 1 paw. 149, 05-270 Marki, Poland",52.32137,21.103223,"b6e1e6b7ce7d38bfcad91f6dedeb5d9e23010175","KANTOR WYMIANY WALUT MAŁGORZATA SULEJEWSKA-BULA",NA,"{finance: 1, point_of_interest: 1, establishment: 1}","kantor"
"2","Jubilerska 1/3, Warszawa, Poland",52.235774,21.1200507,"bd041cb6ade0f932b0651e7d7ca21b8599892e15","Kantor",NA,"{finance: 1, point_of_interest: 1, establishment: 1}","kantor"
"3","Wołoska 12, 02-675 Warszawa, Poland",52.179056,21.0038007,"568be134136e9f8dc2c60377790d6c3afd5e19d9","Apollo. Kantor",4.4,"{finance: 1, point_of_interest: 1, establishment: 1}","kantor"
"4","Jutrzenki 156, 02-001 Warszawa, Poland",52.1996041,20.936027,"25883a79fa069ce3b40d973d6bfa2d11fef61490","Kantor Włochy",NA,"{finance: 1, point_of_interest: 1, establishment: 1}","kantor"
"5","Targowa 72, Warszawa, Poland",52.2545873,21.0357177,"e6bbdb844a86841c55dfa6d83e158feb0fae6feb","Wiek. Kantor wymiany walut",NA,"{finance: 1, point_of_interest: 1, establishment: 1}","kantor"
"6","aleja Jana Pawła II 82, 00-175 Warszawa, Poland",52.2573732,20.9845828,"828db23d384127636e68484cbeacd36ea189fb93","Wiek II. Kantor wymiany walut",3.6,"{finance: 1, point_of_interest: 1, establishment: 1}","kantor"
"7","Piękna 11, Warszawa, Poland",52.223397,21.01981,"2856865f5f55750ac181d4bc76bc8d4ad50d3b54","Bilion. Kantor wymiany walut",NA,"{finance: 1, point_of_interest: 1, establishment: 1}","kantor"
"8","Świętokrzyska 18, 00-001 Warszawa, Poland",52.2361734,21.0113526,"6c4ee215c651e9b07a8c15d4173867d0c9549305","Kantor Wymiany Walut Centrum Warszawa",NA,"{finance: 1, store: 1, point_of_interest: 1, establishment: 1}","kantor"
"9","Pasłęcka 8, 03-137 Warszawa, Poland",52.332392,20.9489882,"2f72f25ff43d76cd79145e3b07d7d0e903f10908","Kantor wymiany walut ""Pod Dębami""",NA,"{finance: 1, point_of_interest: 1, establishment: 1}","kantor"
"10","ul. Ciszewskiego 15, 02-001 Warszawa, Poland",52.1539284,21.0407486,"1b24d7ebb1c3cabbdefdb5b61fb25b42a6c3b97e","Kantor Wymiany Walut, CH KEN Center",NA,"{finance: 1, point_of_interest: 1, establishment: 1}","kantor"
"11","Puławska 2, Warszawa, Poland",52.2127215,21.0198283,"3f9dec13a2c0a28680d81188d769234cad9da196","Kantor Wymiany Walut, CH Plac Unii",NA,"{finance: 1, point_of_interest: 1, establishment: 1}","kantor"
"12","Aleje Jerozolimskie 33, Warszawa, Poland",52.2299618,21.0136706,"5d10288eb7849be26b19e54ce0aaf3842bc30447","Rybicki Antoni. Kantor",NA,"{finance: 1, point_of_interest: 1, establishment: 1}","kantor"
"13","aleja Krakowska 61, Warszawa, Poland",52.1705899,20.9352784,"b53852c9da7a0faf6eea06f929cb2d4e6e2562a7","Szymanczyk B. Kantor wymiany walut. Filia",NA,"{finance: 1, point_of_interest: 1, establishment: 1}","kantor"
"14","Puławska 42, 05-500 Piaseczno, Poland",52.0902583,21.0188773,"43c2d861042aaceefb8e08e8ec5cb5ae389373e0","Kantor Wymiany Walut, CH Fashion House",NA,"{finance: 1, point_of_interest: 1, establishment: 1}","kantor"
"15","Grójecka 42, 02-320 Warszawa, Poland",52.2177593,20.9818671,"307f6415b18a5109e87da2bc8f627a23f9c27778","Kantor Cris",3.5,"{finance: 1, point_of_interest: 1, establishment: 1}","kantor"
"16","Klonowa 22, 00-591 Warszawa, Poland",52.2131792,21.0223282,"70494a965b7c1f733d987482346aef1812159554","Kantor Polres. Całodobowy Kantor Wymiany Walut ""Polres"" & ""Cris""",4.7,"{finance: 1, point_of_interest: 1, establishment: 1}","kantor"
"17","Brukowa 25, 05-092 Łomianki, Poland",52.323568,20.8998358,"bf29ab64674b2446a2dc134f3aa9ec6e35320da6","KANTOR WYMIANY WALUT",NA,"{finance: 1, point_of_interest: 1, establishment: 1}","kantor"
"18","Stefana Batorego 1a, 05-091 Ząbki, Poland",52.2922839,21.111349,"88b1f55140da87c2bd6060db6698d367b2ec5823","LOOMBARD.PL Ząbki Pożyczki pod zastaw",NA,"{jewelry_store: 1, finance: 1, store: 1, point_of_interest: 1, establishment: 1}","kantor"
"19","Kazimierza Szpotańskiego 4, Warszawa, Poland",52.206664,21.167246,"fc1641ae3d311e23bc699b151acf6cf410fc8f5f","Kantor Ferio",NA,"{finance: 1, point_of_interest: 1, establishment: 1}","kantor"
"20","05-520 Konstancin-Jeziorna; al. Wojska Polskiego 3, 05-510, Poland",52.0910732,21.1233507,"a4ade6db3ce2a9d52f1bf7711a0983fb08a67d6c","Kantor wymiany walut s.c.",NA,"{finance: 1, point_of_interest: 1, establishment: 1}","kantor"
"41","Czesława Liska 1, Skierniewice, Poland",51.972412,20.146675,"95871c1bdacb40f595d228455fdfe4bef5c02586","Kantor wymiany walut Dariusz Witowski",NA,"{finance: 1, point_of_interest: 1, establishment: 1}","kantor"
"42","lok. 029, Franciszka Klimczaka 1, 02-797 Warszawa, Poland",52.163851,21.083536,"e2b9ea847f5ac06c8efe3bfce0a345a74c847c72","Kantor wymiany walut",NA,"{finance: 1, point_of_interest: 1, establishment: 1}","kantor"
"43","aleja Rzeczypospolitej 14, 02-972 Warszawa, Poland",52.1639468,21.0707645,"3f7b411e61c6838c353fe2d3bf30b3e27e4e4a1e","Kantor",NA,"{finance: 1, point_of_interest: 1, establishment: 1}","kantor"
"44","plac szwedzki 3 lokal 37B, 05-090 Raszyn, Poland",52.1348407,20.8963253,"a7e47dcb6625a369a0c04de20a4f2ec5dc1a1cc9","Ikea Janki Kantor Wymiany Walut Władysław Jańczuk",4.9,"{shopping_mall: 1, finance: 1, point_of_interest: 1, establishment: 1}","kantor"
"45","Olbrachta 11, 01-111 Warszawa, Poland",52.235546,20.9384676,"dd02d0d6fd904718105c475925df82ef04eb4c78","Loombard",NA,"{jewelry_store: 1, finance: 1, store: 1, point_of_interest: 1, establishment: 1}","kantor"
"46","Narutowicza 2, 90-135 Łódź, Poland",51.7707799,19.45659,"bbbdca3cdde87b2e355a377a9d78ea3d79d57537","Całodobowy Kantor Lombard",4.1,"{finance: 1, point_of_interest: 1, establishment: 1}","kantor"
"47","Szeroka 41, Toruń, Poland",53.010245,18.605615,"8bad3ed8131df45c3622c9fe90923624943a73b4","Kantor wymiany walut",NA,"{finance: 1, point_of_interest: 1, establishment: 1}","kantor"
"48","Broniewskiego 61/63, 87-100 Toruń, Poland",53.0131309,18.5639219,"e393c205fc1e9ba68fcfd0750f07cbc9bac3684a","Kantor Wymiany Walut",NA,"{finance: 1, point_of_interest: 1, establishment: 1}","kantor"
"49","Staszica 8, Sosnowiec, Poland",50.2886091,19.1490724,"87e57da12cca38bd7bd5c2900256e99060c73a2f","Kantor wymiany walut",NA,"{finance: 1, point_of_interest: 1, establishment: 1}","kantor"
"50","lok 4,, Powstańców Śląskich 106, 01-466 Warszawa, Poland",52.2552703,20.9192105,"7df0b5bbeabd36a11b519a3e05910bd4b02b3092","Kantor Wymiany Walut",NA,"{atm: 1, finance: 1, point_of_interest: 1, establishment: 1}","kantor"
"51","CENTRUM PLAZA, Lipowa 13, Lublin, Poland",51.245011,22.551513,"792bdeeb8b73826fdb5b5fea9a2687806538fb2b","Kantor J&M",NA,"{finance: 1, point_of_interest: 1, establishment: 1}","kantor"
